PEP_ID,National_ID,LON,LAT,ALT,NAME
19525,1,15.8666,44.8,246,Bihac
19526,2,17.45,44.05,562,Bugojno
19527,5,18.433,43.866,560,Ilidza
19528,4,17.8,43.3333,99,Mostar
19529,3,18.6833,44.5333,305,Tuzla
20454,6,18.4228,43.8678,630,Sarajevo