PEP_ID,National_ID,LON,LAT,ALT,NAME
8273,13,-10.2167,51.9333,14,Valentia Observatory
8274,14,-6.93333,52.3833,80,JFK Arboretum
8275,15,-6.56667,52.45,60,Johnstown Castle
8276,16,-6.23333,53.3333,30,National Botanic Gardens
8277,112,-7.71667,54.95,60,Glenveagh National Park
8283,118,-6.65,54.5833,64,ARMAGH - ARMAGH OBSERVATORY